,City,Cloudiness,Country,Date,Humidity,Temp,Lat,Lng,Wind Speed
0,namatanai,0,PG,1577607574,71,83.62,-3.66,152.44,8.68
1,yellowknife,90,CA,1577607574,83,-4.0,62.45,-114.38,12.75
2,kapaa,75,US,1577607450,94,73.4,22.08,-159.32,6.93
3,palu,100,ID,1577607575,93,75.38,-0.9,119.87,1.99
4,garowe,67,SO,1577607575,40,86.29,8.41,48.48,8.32
5,georgetown,40,GY,1577607575,100,73.4,6.8,-58.16,4.7
6,novopokrovka,90,UA,1577607576,100,28.4,49.84,36.56,6.71
7,monterey,20,US,1577607576,86,46.99,36.6,-121.89,5.82
8,ushuaia,40,AR,1577607576,97,51.8,-54.81,-68.31,12.75
9,saint-philippe,1,CA,1577607576,92,32.0,45.36,-73.48,5.64
10,tasiilaq,66,GL,1577607577,63,26.6,65.61,-37.64,4.7
11,sri aman,75,MY,1577607577,83,87.01,1.24,111.46,3.36
12,touros,20,BR,1577607467,94,73.4,-5.2,-35.46,4.7
13,vila velha,75,BR,1577607500,78,86.0,-3.71,-38.6,10.29
14,havre-saint-pierre,1,CA,1577607577,85,12.2,50.23,-63.6,8.05
15,pevek,100,RU,1577607578,93,-9.85,69.7,170.27,10.22
16,xinqing,100,CN,1577607578,95,-12.53,48.28,129.53,6.38
17,cabo san lucas,75,MX,1577607307,72,64.99,22.89,-109.91,4.7
18,douentza,0,ML,1577607578,11,74.98,15.01,-2.95,1.83
19,richards bay,68,ZA,1577607554,77,75.27,-28.77,32.06,27.51
20,vaini,40,IN,1577607579,54,82.4,15.34,74.49,9.17
21,saldanha,0,PT,1577607579,54,42.24,41.42,-6.55,1.79
22,busselton,55,AU,1577607579,38,75.0,-33.64,115.35,19.75
23,rikitea,98,PF,1577607579,83,75.69,-23.12,-134.97,9.06
24,whitefish,90,US,1577607580,79,25.0,48.41,-114.33,1.86
25,fuerte olimpo,0,BR,1577607580,82,74.97,-21.04,-57.87,2.77
26,mar del plata,0,AR,1577607431,50,59.45,-46.43,-67.52,14.88
27,hami,0,CN,1577607581,43,24.48,42.84,93.51,6.31
28,kaeo,0,NZ,1577607581,72,64.18,-35.1,173.78,5.39
29,atuona,53,PF,1577607583,78,80.56,-9.8,-139.03,18.95
30,knysna,75,ZA,1577607583,60,73.4,-34.04,23.05,12.75
31,khani,0,GE,1577607583,62,53.6,41.96,42.96,19.46
32,vila,75,IT,1577607584,100,39.0,45.18,8.4,2.24
33,hithadhoo,92,MV,1577607584,76,81.9,-0.6,73.08,7.27
34,brainerd,90,US,1577607567,98,33.8,46.36,-94.2,13.87
35,oranjestad,40,AW,1577607584,78,80.6,12.52,-70.03,16.11
36,san cristobal,0,HN,1577607521,96,59.92,14.68,-86.92,2.19
37,barrow,41,AR,1577607585,97,61.09,-38.31,-60.23,2.98
38,cape town,0,ZA,1577607495,36,80.01,-33.93,18.42,3.36
39,airai,93,TL,1577607585,91,73.4,-8.93,125.41,1.3
40,sao filipe,21,CV,1577607585,67,71.78,14.9,-24.5,13.51
41,ribeira grande,20,PT,1577607586,81,51.8,38.52,-28.7,5.82
42,ruteng,100,ID,1577607586,91,74.75,-8.61,120.46,0.85
43,hermanus,4,ZA,1577607453,76,80.01,-34.42,19.24,11.01
44,taltal,55,CL,1577607522,89,56.3,-25.41,-70.49,2.95
45,cayenne,75,GF,1577607588,88,77.0,4.94,-52.33,6.06
46,rosarito,90,CO,1577607588,89,65.59,4.91,-75.23,3.65
47,lavrentiya,0,RU,1577607495,90,-8.21,65.58,-170.99,7.27
48,kodiak,75,US,1577607588,87,51.8,39.95,-94.76,20.8
49,nikolskoye,75,RU,1577607588,92,23.0,59.7,30.79,6.71
50,mataura,100,NZ,1577607589,87,57.99,-46.19,168.86,20.0
51,punta arenas,20,CL,1577607589,61,48.2,-53.16,-70.91,32.21
52,sioux lookout,90,CA,1577607589,92,15.8,50.1,-91.92,5.82
53,canutama,100,BR,1577607589,99,72.46,-6.53,-64.38,1.05
54,hasaki,40,JP,1577607590,52,46.4,35.73,140.83,3.36
55,luan,0,CH,1577607590,92,33.8,46.36,6.98,3.36
56,jamestown,47,AU,1577607590,28,87.66,-33.21,138.6,7.38
57,baykit,100,RU,1577607591,98,-11.76,61.68,96.39,4.29
58,cherskiy,100,RU,1577607591,97,-16.67,68.75,161.3,5.41
59,lebu,40,ET,1577607591,77,59.0,8.96,38.73,11.41
60,puerto ayora,99,EC,1577607435,90,72.0,-0.74,-90.35,1.01
61,namibe,90,AO,1577607593,83,71.6,-15.19,12.15,1.16
62,torbay,90,CA,1577607593,92,32.0,47.66,-52.73,10.29
63,moose factory,90,CA,1577607593,79,19.4,51.26,-80.61,4.7
64,katsuura,75,JP,1577607593,57,51.8,33.93,134.5,2.24
65,castro,99,CL,1577607593,100,44.6,-42.48,-73.76,6.93
66,mayo,75,CA,1577607594,68,-16.6,63.59,-135.9,3.22
67,gambela,83,ET,1577607594,22,95.99,8.25,34.59,3.36
68,haines junction,18,CA,1577607594,94,14.85,60.75,-137.51,8.5
69,ponta delgada,75,PT,1577607594,93,59.0,37.73,-25.67,12.75
70,port elizabeth,1,US,1577607546,92,39.0,39.31,-74.98,3.94
71,hovd,75,NO,1577607595,86,46.99,63.83,10.7,8.05
72,evans,40,US,1577607595,62,26.01,40.38,-104.69,18.34
73,ponta do sol,65,BR,1577607595,95,64.36,-20.63,-46.0,1.16
74,geraldton,90,CA,1577607489,85,17.6,49.72,-86.95,9.17
75,albany,20,US,1577607596,74,35.01,42.65,-73.75,10.29
76,tiksi,100,RU,1577607596,85,-25.15,71.64,128.87,8.19
77,montijo,0,ES,1577607596,100,46.0,38.91,-6.62,3.36
78,sorland,100,NO,1577607596,90,44.67,67.67,12.69,20.45
79,arraial do cabo,20,BR,1577607597,88,74.71,-22.97,-42.02,10.83
80,constitucion,100,MX,1577607597,65,48.0,23.99,-104.67,5.99
81,bredasdorp,95,ZA,1577607597,60,71.6,-34.53,20.04,17.22
82,brae,75,GB,1577607597,100,50.0,60.4,-1.35,31.09
83,kahului,1,US,1577607598,83,71.6,20.89,-156.47,3.36
84,upernavik,93,GL,1577607436,66,9.86,72.79,-56.15,7.31
85,nan,20,TH,1577607598,45,86.0,18.78,100.78,4.7
86,itamaraca,75,BR,1577607598,74,80.6,-7.75,-34.83,5.82
87,tigzirt,98,DZ,1577607599,83,44.35,36.57,4.2,2.59
88,ancud,67,CL,1577607599,100,44.6,-41.87,-73.83,6.93
89,champerico,42,MX,1577607599,84,59.56,16.38,-93.6,1.88
90,portland,1,US,1577607501,68,37.0,43.66,-70.25,26.02
91,byron bay,34,AU,1577607600,64,79.0,-28.65,153.62,10.29
92,port alfred,100,ZA,1577607601,91,68.0,-33.59,26.89,1.99
93,vila franca do campo,75,PT,1577607534,93,59.0,37.72,-25.43,12.75
94,skjervoy,100,NO,1577607602,87,40.77,70.03,20.97,37.83
95,komsomolskiy,100,RU,1577607602,93,11.77,67.55,63.78,22.1
96,khatanga,100,RU,1577607603,98,-18.08,71.98,102.47,2.66
97,puerto madero,65,AR,1577607305,83,75.99,-34.61,-58.36,3.36
98,maues,63,BR,1577607604,98,72.82,-3.38,-57.72,1.86
99,narsaq,100,GL,1577607452,86,26.6,60.91,-46.05,2.24
100,sept-iles,20,CA,1577607305,78,15.8,50.2,-66.38,18.19
101,vestmannaeyjar,100,IS,1577607604,91,44.04,63.44,-20.27,17.43
102,tyulgan,97,RU,1577607605,95,22.42,52.34,56.17,6.29
103,butaritari,72,KI,1577607605,78,83.75,3.07,172.79,14.54
104,vao,32,EE,1577607605,81,25.02,59.1,26.19,8.79
105,victoria,75,BN,1577607362,79,86.0,5.28,115.24,6.93
106,pendleton,90,US,1577607606,100,61.0,34.65,-82.78,5.77
107,coleraine,2,AU,1577607606,35,86.13,-37.6,141.69,9.15
108,kavieng,84,PG,1577607606,73,84.16,-2.57,150.8,10.4
109,provideniya,0,RU,1577607435,83,-5.64,64.42,-173.23,13.49
110,sangar,40,RU,1577607607,98,-41.82,63.92,127.47,1.07
111,kaitangata,100,NZ,1577607510,71,63.0,-46.28,169.85,8.99
112,saint george,20,GR,1577607607,48,41.0,39.45,22.34,17.22
113,laguna,66,BZ,1577607608,90,67.69,16.17,-88.94,1.1
114,pires do rio,100,BR,1577607608,96,65.89,-17.3,-48.28,3.44
115,new norfolk,75,AU,1577607460,72,66.99,-42.78,147.06,17.22
116,almaznyy,90,RU,1577607609,70,32.0,48.03,40.04,4.47
117,salinopolis,76,BR,1577607609,80,82.22,-0.61,-47.36,17.54
118,bethel,75,US,1577607610,68,-14.8,60.79,-161.76,5.82
119,hualmay,100,PE,1577607610,82,66.83,-11.1,-77.61,1.92
120,mount isa,40,AU,1577607611,13,102.2,-20.73,139.49,6.93
121,sterling,90,US,1577607611,87,46.99,39.0,-77.4,4.41
122,kidal,0,ML,1577607612,15,70.72,18.44,1.41,13.69
123,jardim,71,BR,1577607612,84,73.11,-21.48,-56.15,4.05
124,san angelo,1,US,1577607416,74,41.0,31.46,-100.44,3.36
125,parkes,100,AU,1577607612,10,99.0,-33.14,148.18,7.29
126,bluff,61,AU,1577607612,43,81.28,-23.58,149.07,15.88
127,amuntai,60,ID,1577607613,66,87.49,-2.42,115.25,1.81
128,minab,52,IR,1577607613,47,75.2,27.15,57.07,2.24
129,alofi,100,NU,1577607613,90,76.68,-19.06,-169.92,23.69
130,kigorobya,51,UG,1577607613,32,81.43,1.62,31.31,7.25
131,balkanabat,98,TM,1577607514,80,47.84,39.51,54.36,3.29
132,kysyl-syr,43,RU,1577607614,98,-37.91,63.9,122.77,4.27
133,mountain home,90,US,1577607614,80,30.2,43.13,-115.69,6.93
134,kirakira,10,SB,1577607483,85,77.94,-10.46,161.92,3.85
135,dingle,0,PH,1577607532,85,77.09,11.0,122.67,8.88
136,nador,40,MA,1577607615,71,57.2,35.17,-2.93,5.82
137,qaanaaq,100,GL,1577607615,62,3.87,77.48,-69.36,16.69
138,antanifotsy,15,MG,1577607615,43,83.71,-19.66,47.32,1.68
139,carnarvon,67,ZA,1577607617,21,86.7,-30.97,22.13,21.99
140,pokaran,0,IN,1577607617,10,67.86,26.93,71.92,8.5
141,codrington,0,AU,1577607501,57,78.8,-28.95,153.24,13.87
142,veydelevka,100,RU,1577607617,85,29.5,50.15,38.45,7.07
143,kanashevo,75,RU,1577607618,84,8.6,55.21,62.07,13.42
144,zdvinsk,100,RU,1577607618,91,8.73,54.7,78.67,7.7
145,padang,83,ID,1577607618,93,75.9,-0.92,100.36,2.19
146,novoaleksandrovsk,91,RU,1577607618,66,44.24,45.5,41.22,13.8
147,yueyang,100,CN,1577607618,68,56.14,29.36,113.12,5.35
148,kaseda,75,JP,1577607619,82,55.4,31.42,130.32,4.7
149,abu samrah,95,SY,1577607619,80,50.25,35.3,37.18,9.01
150,isangel,72,VU,1577607619,79,77.52,-19.55,169.27,19.39
151,clyde river,75,CA,1577607619,76,-7.6,70.47,-68.59,3.36
152,salalah,75,OM,1577607444,51,84.2,17.01,54.1,2.24
153,san patricio,0,PY,1577607620,66,76.87,-26.98,-56.83,2.46
154,tuktoyaktuk,80,CA,1577607621,92,-24.41,69.44,-133.03,16.13
155,ulaanbaatar,66,MN,1577607621,47,-9.4,47.92,106.92,8.95
156,gavle,100,SE,1577607621,94,36.0,60.67,17.14,4.0
157,berdigestyakh,39,RU,1577607622,96,-39.1,62.1,126.7,3.65
158,itoman,75,JP,1577607622,73,73.4,26.12,127.67,8.05
159,qiongshan,90,CN,1577607540,94,68.0,20.01,110.35,6.71
160,wanning,20,AT,1577607623,92,28.0,48.64,13.53,2.24
161,whitianga,0,NZ,1577607624,73,62.01,-36.83,175.7,4.0
162,martapura,99,ID,1577607624,83,82.85,-3.41,114.85,4.38
163,muzhi,100,RU,1577607624,78,12.36,65.4,64.7,12.88
164,rafai,0,CF,1577607625,10,90.46,4.95,23.92,4.68
165,lompoc,1,US,1577607470,87,48.99,34.64,-120.46,3.36
166,charters towers,18,AU,1577607625,64,78.96,-20.07,146.27,15.77
167,coachella,1,US,1577607625,75,46.4,33.68,-116.18,4.7
168,lixourion,40,GR,1577607625,49,48.2,38.2,20.43,16.11
169,guaruja,20,BR,1577607626,82,70.0,-23.99,-46.26,3.36
170,taoudenni,0,ML,1577607468,16,66.42,22.68,-3.98,8.03
171,copiapo,56,CL,1577607626,87,59.0,-27.37,-70.33,9.17
172,avarua,100,CK,1577607626,78,77.0,-21.21,-159.78,9.17
173,jiutai,90,CN,1577607627,78,10.4,44.15,125.84,6.71
174,chartres,90,FR,1577607627,80,33.01,48.45,1.49,8.05
175,the valley,20,AI,1577607470,88,77.0,18.22,-63.06,4.7
176,hilo,75,US,1577607627,78,73.4,19.71,-155.08,5.82
177,waipawa,0,NZ,1577607627,58,57.99,-39.94,176.59,5.01
178,fougamou,100,GA,1577607628,73,83.12,-1.22,10.59,3.15
179,sitka,0,US,1577607628,86,30.99,37.17,-99.65,15.99
180,ossora,0,RU,1577607629,70,-0.56,59.24,163.07,7.36
181,san andres,0,PH,1577607629,69,79.2,13.32,122.68,3.29
182,zhucheng,75,CN,1577607629,71,51.8,30.85,114.8,4.47
183,hobart,75,AU,1577607530,72,66.99,-42.88,147.33,17.22
184,beawar,0,IN,1577607630,17,66.92,26.1,74.31,9.35
185,tahe,0,CN,1577607630,91,-20.24,52.34,124.71,4.05
186,yantongshan,100,CN,1577607630,95,17.04,43.28,126.02,8.97
187,pompeu,90,BR,1577607630,88,71.6,-21.05,-48.85,5.82
188,cidreira,78,BR,1577607630,88,73.15,-30.17,-50.22,15.28
189,kerekegyhaza,75,HU,1577607631,80,33.01,46.94,19.48,2.24
190,majene,100,ID,1577607631,72,83.79,-3.54,118.97,1.3
191,mount gambier,0,AU,1577607632,31,87.8,-37.83,140.78,10.29
192,tucuman,99,PE,1577607632,85,53.35,-17.17,-70.89,1.77
193,mahebourg,75,MU,1577607632,94,81.0,-20.41,57.7,13.87
194,prachuap khiri khan,0,TH,1577607632,73,80.85,11.81,99.79,8.66
195,esperance,0,AU,1577607454,47,80.6,-33.86,121.89,18.34
196,volovo,74,RU,1577607633,73,23.99,53.55,38.01,8.57
197,flinders,75,AU,1577607477,61,78.01,-34.58,150.85,6.93
198,hokitika,100,NZ,1577607633,79,54.77,-42.72,170.96,8.66
199,buala,27,SB,1577607633,78,80.6,-8.15,159.59,3.06
200,birao,0,CF,1577607634,16,79.88,10.3,22.78,15.03
201,bambous virieux,75,MU,1577607634,94,81.0,-20.34,57.76,13.87
202,kodinsk,100,RU,1577607635,93,-17.36,58.6,99.18,4.9
203,bamiantong,97,CN,1577607635,96,13.21,44.93,130.53,3.69
204,puerto colombia,96,CO,1577607635,78,82.4,10.99,-74.96,10.29
205,faanui,100,PF,1577607635,74,80.98,-16.48,-151.75,11.23
206,cap malheureux,75,MU,1577607636,94,81.0,-19.98,57.61,13.87
207,mitzic,84,GA,1577607636,61,82.13,0.78,11.55,3.4
208,sergeyevka,100,KZ,1577607461,94,6.13,53.88,67.42,12.01
209,paamiut,75,GL,1577607636,59,24.06,61.99,-49.67,1.97
210,zalaegerszeg,75,HU,1577607636,69,34.0,46.84,16.85,17.22
211,porto belo,40,BR,1577607637,88,77.0,-27.15,-48.54,9.17
212,pontianak,94,ID,1577607637,89,81.48,-0.02,109.34,4.59
213,lodja,86,CD,1577607637,73,79.75,-3.52,23.6,1.52
214,coquimbo,75,CL,1577607637,87,59.0,-29.95,-71.34,2.24
215,laiyang,21,CN,1577607638,60,50.0,36.98,120.7,1.9
216,norman wells,75,CA,1577607456,75,-20.2,65.28,-126.83,14.99
217,moussoro,0,TD,1577607639,15,74.91,13.64,16.49,12.5
218,beira,0,ES,1577607639,67,48.99,43.2,-8.36,5.82
219,dikson,10,RU,1577607449,90,-17.12,73.51,80.55,22.5
220,harper,40,US,1577607640,93,48.99,30.3,-99.24,3.36
221,khon kaen,20,TH,1577607642,40,87.8,16.43,102.84,9.17
222,owando,60,CG,1577607642,54,87.84,-0.49,15.91,4.14
223,la rochelle,92,FR,1577607395,93,35.6,46.16,-1.15,9.17
224,lasa,40,CY,1577607455,82,59.0,34.92,32.53,4.7
225,nurota,98,UZ,1577607644,43,50.0,40.56,65.69,11.41
226,concordia,62,AR,1577607644,89,73.99,-31.4,-58.02,4.0
227,bansi,0,IN,1577607644,30,65.62,27.18,82.93,4.88
228,kothi,0,IN,1577607645,23,65.48,24.76,80.77,5.61
229,bereda,0,ES,1577607645,46,42.8,43.27,-7.54,5.82
230,navalmoral de la mata,0,ES,1577607645,50,43.0,39.89,-5.54,5.19
231,bodden town,0,KY,1577607646,77,79.0,19.28,-81.25,5.01
232,muttupet,98,IN,1577607646,70,83.23,10.4,79.48,13.91
233,camalu,0,MX,1577607646,20,32.0,30.85,-116.07,11.01
234,rodrigues alves,100,BR,1577607647,99,72.45,-7.74,-72.65,2.1
235,camacha,40,PT,1577607548,88,66.2,33.08,-16.33,11.41
236,caucaia,75,BR,1577607647,78,86.0,-3.73,-38.66,10.29
237,lagoa,0,PT,1577607477,87,55.4,37.14,-8.45,10.29
238,santander,40,PH,1577607647,70,84.2,9.42,123.33,6.93
239,rognan,75,NO,1577607648,93,43.0,67.1,15.4,25.28
240,bertoua,27,CM,1577607648,18,86.99,4.58,13.68,3.0
241,chumikan,100,RU,1577607648,74,-9.56,54.72,135.31,13.65
242,liaqatabad,40,PK,1577607648,62,51.8,31.56,74.3,3.85
243,souillac,47,FR,1577607648,100,36.0,45.6,-0.6,3.36
244,doka,0,SD,1577607649,24,85.15,13.52,35.76,7.23
245,portel,100,BR,1577607649,99,73.35,-1.94,-50.82,2.06
246,gallup,1,US,1577607486,85,14.0,35.53,-108.74,3.36
247,kibaek,90,DK,1577607650,87,45.0,56.03,8.86,10.29
248,xuanzhou,100,CN,1577607650,82,49.59,30.95,118.78,0.4
249,kloulklubed,75,PW,1577607650,69,82.4,7.04,134.26,12.75
250,college,75,US,1577607650,76,-9.0,64.86,-147.8,4.09
251,plettenberg bay,4,ZA,1577607395,78,69.33,-34.05,23.37,15.35
252,hamilton,5,CA,1577607631,100,33.8,43.26,-79.87,10.29
253,atar,0,MR,1577607651,13,68.41,20.52,-13.05,14.63
254,saskylakh,12,RU,1577607651,95,-29.7,71.97,114.09,9.46
255,bontang,49,ID,1577607444,75,84.02,0.12,117.47,9.86
256,cockburn town,100,TC,1577607652,79,78.19,21.46,-71.14,23.69
257,orvieto,28,IT,1577607588,69,44.01,42.72,12.11,19.46
258,tiznit,0,MA,1577607653,22,59.67,29.7,-9.73,6.58
259,port blair,3,IN,1577607653,78,80.49,11.67,92.75,14.18
260,makokou,3,GA,1577607653,59,83.97,0.56,12.85,4.29
261,mildura,78,AU,1577607653,9,109.0,-34.18,142.16,5.82
262,ballina,20,IE,1577607654,87,55.0,54.11,-9.15,18.34
263,coahuayana,100,MX,1577607654,61,69.57,18.62,-100.35,1.63
264,zacualpan,90,MX,1577607654,82,69.01,21.25,-105.17,9.17
265,tessalit,0,ML,1577607654,15,70.09,20.2,1.01,13.33
266,cartagena del chaira,35,CO,1577607515,99,71.44,1.33,-74.84,1.03
267,severo-kurilsk,100,RU,1577607655,91,25.25,50.68,156.12,25.88
268,kulhudhuffushi,100,MV,1577607655,76,82.24,6.62,73.07,15.23
269,pisco,90,PE,1577607655,88,69.8,-13.71,-76.2,3.36
270,puerto escondido,20,MX,1577607655,74,78.8,15.86,-97.07,2.62
271,lamar,75,US,1577607655,68,26.6,38.09,-102.62,12.75
272,grand gaube,75,MU,1577607656,94,81.0,-20.01,57.66,13.87
273,maturin,100,VE,1577607656,97,70.14,9.75,-63.18,4.05
274,watrous,0,CA,1577607442,91,8.73,51.67,-105.46,2.68
275,isfana,90,KG,1577607656,56,42.8,39.84,69.53,11.18
276,moron,0,HT,1577607540,69,74.37,18.56,-74.26,4.7
277,jalu,0,LY,1577607657,56,60.84,29.03,21.55,21.52
278,tsabong,100,BW,1577607657,84,68.34,-26.02,22.4,10.67
279,pangnirtung,48,CA,1577607657,88,-11.72,66.15,-65.72,3.04
280,sladkovo,100,RU,1577607657,94,5.0,55.53,70.34,12.88
281,wanaka,64,NZ,1577607658,97,44.42,-44.7,169.14,7.81
282,lorengau,81,PG,1577607658,69,84.24,-2.02,147.27,6.78
283,forth,50,AU,1577607658,75,75.0,-41.19,146.25,3.0
284,levin,52,NZ,1577607658,69,61.0,-40.62,175.28,4.0
285,dickinson,90,US,1577607531,85,19.0,46.88,-102.79,16.11
286,batagay-alyta,0,RU,1577607659,78,-28.66,67.8,130.41,4.38
287,mansa,20,IN,1577607659,35,71.6,23.43,72.66,8.05
288,zhigalovo,0,RU,1577607659,95,-28.79,54.81,105.15,2.37
289,lintangan,20,PH,1577607659,45,87.8,7.22,121.95,9.17
290,usinsk,100,RU,1577607660,84,13.62,66.0,57.56,24.14
291,talnakh,94,RU,1577607479,75,-20.2,69.49,88.39,6.71
292,bulungu,100,CD,1577607661,96,69.8,-4.54,18.6,6.82
293,shingu,75,JP,1577607661,62,53.6,33.72,135.99,3.36
294,talaya,100,RU,1577607661,70,-5.8,55.79,84.89,2.24
295,homer,90,US,1577607662,85,21.2,59.64,-151.54,10.29
296,maniitsoq,100,GL,1577607545,50,21.27,65.42,-52.9,7.0
297,raisinghnagar,0,IN,1577607664,15,61.99,29.54,73.45,0.72
298,hobyo,52,SO,1577607664,59,85.39,5.35,48.53,16.42
299,at-bashi,100,KG,1577607664,62,18.97,41.17,75.81,5.97
300,nishihara,90,JP,1577607664,39,50.0,35.74,139.53,1.23
301,longyearbyen,75,NO,1577607665,67,17.6,78.22,15.63,8.05
302,santa rosalia,40,IT,1577607665,50,53.01,38.07,13.27,21.92
303,sabang,0,PH,1577607665,74,84.0,13.8,121.11,1.99
304,san antonio,90,CL,1577607640,100,55.4,-33.58,-71.61,5.82
305,san felipe,68,CL,1577607665,43,55.33,-32.75,-70.73,0.96
306,husavik,100,CA,1577607666,95,10.99,50.56,-96.99,3.0
307,ayan,0,IR,1577607666,74,26.92,38.23,44.7,4.7
308,gat,0,SN,1577607666,58,73.4,14.69,-16.54,9.93
309,hachinohe,20,JP,1577607666,75,32.0,40.47,141.48,2.24
310,surt,58,LY,1577607666,53,55.17,31.21,16.59,20.49
311,pereyaslovskaya,95,RU,1577607667,65,45.03,45.84,39.02,12.55
312,itaituba,99,BR,1577607667,97,72.52,-4.26,-55.99,0.98
313,east london,20,ZA,1577607667,94,68.0,-33.02,27.91,6.93
314,macamic,40,CA,1577607668,92,12.2,48.75,-79.0,3.36
315,vakhtan,47,RU,1577607668,84,10.38,57.97,46.69,4.7
316,olonets,33,RU,1577607605,83,20.44,60.98,32.97,7.9
317,fort frances,90,CA,1577607668,86,27.0,48.61,-93.4,8.05
318,haslett,90,US,1577607668,80,41.0,42.75,-84.4,10.29
319,igarka,93,RU,1577607669,99,-26.12,67.47,86.57,4.52
320,mount abu,0,IN,1577607669,14,73.4,24.59,72.71,1.86
321,solnechnyy,8,RU,1577607669,94,-13.95,50.72,136.64,1.74
322,luderitz,36,NA,1577607669,53,73.4,-26.65,15.16,14.99
323,ninghai,100,CN,1577607670,64,69.8,29.29,121.42,6.71
324,waddan,31,LY,1577607670,49,55.35,29.16,16.14,21.77
325,kruisfontein,100,ZA,1577607459,74,70.34,-34.0,24.73,14.0
326,kikwit,100,CD,1577607670,98,68.25,-5.04,18.82,3.94
327,duobao,100,CN,1577607670,65,55.35,30.67,112.69,4.43
328,chokurdakh,0,RU,1577607671,90,-33.97,70.62,147.9,7.23
329,nokaneng,100,BW,1577607671,51,82.13,-19.66,22.19,9.78
330,pando,31,UY,1577607671,88,73.0,-34.72,-55.96,4.7
331,khash,0,IR,1577607671,36,56.95,28.22,61.21,7.92
332,esmeraldas,40,BR,1577607672,82,69.8,-19.76,-44.31,8.05
333,yarada,20,IN,1577607672,39,78.8,17.65,83.27,11.41
334,port hardy,75,CA,1577607657,87,44.6,50.7,-127.42,24.16
335,saint-augustin,75,CA,1577607565,86,32.0,45.63,-73.98,4.7
336,letnica,75,PL,1577607673,81,32.0,51.9,15.33,3.36
337,kiruna,38,SE,1577607673,82,35.6,67.86,20.23,12.75
338,nelson bay,0,AU,1577607673,38,87.8,-32.72,152.14,12.75
339,nueva guinea,100,NI,1577607673,97,72.66,11.69,-84.46,7.0
340,concepcion,100,CO,1577607674,89,74.1,9.56,-73.66,1.07
341,belaya gora,0,RU,1577607674,79,-35.36,68.54,146.19,2.13
342,manjeshwar,36,IN,1577607674,62,84.2,12.72,74.89,5.82
343,adelaide,20,AU,1577607487,27,100.99,-34.93,138.6,10.29
344,thompson,90,CA,1577607674,84,3.2,55.74,-97.86,4.7
345,tokoroa,0,NZ,1577607675,72,62.01,-38.22,175.87,7.0
346,saint-pierre,15,FR,1577607515,92,28.99,48.95,4.24,9.17
347,koumac,39,NC,1577607675,79,74.71,-20.56,164.28,6.38
348,lucea,20,JM,1577607675,83,77.0,18.44,-78.17,5.82
349,leua,40,AO,1577607675,88,69.8,-11.65,20.45,5.82
350,pozo colorado,0,PY,1577607676,69,77.54,-23.49,-58.8,5.08
351,juneau,90,US,1577607654,86,39.2,58.3,-134.42,8.05
352,santa rosa,57,AR,1577607676,77,66.65,-36.62,-64.29,9.82
353,christchurch,100,NZ,1577607478,72,66.99,-43.53,172.64,6.93
354,carutapera,100,BR,1577607676,80,82.04,-1.2,-46.02,16.55
355,rudkobing,100,DK,1577607677,81,35.6,54.94,10.71,8.05
356,shakawe,100,BW,1577607677,40,87.31,-18.36,21.84,8.23
357,borba,100,BR,1577607677,98,73.2,-4.39,-59.59,2.01
358,kirishi,64,RU,1577607677,72,23.22,59.45,32.01,4.99
359,dandong,100,CN,1577607677,80,36.82,40.12,124.37,12.17
360,altay,63,CN,1577607678,42,7.88,47.83,88.13,2.95
361,tokat,90,TR,1577607678,89,32.0,40.33,36.55,11.41
362,magistralnyy,0,RU,1577607678,95,-27.98,56.17,107.45,3.87
363,buraydah,0,SA,1577607679,42,68.0,26.33,43.97,12.75
364,black forest,0,AU,1577607679,35,100.99,-34.96,138.58,9.17
365,ilanskiy,99,RU,1577607679,90,-8.46,56.24,96.06,3.31
366,dinguiraye,0,GN,1577607679,16,76.75,11.29,-10.71,1.14
367,umm kaddadah,20,SD,1577607680,20,72.66,13.6,26.69,14.07
368,kisangani,89,CD,1577607680,46,91.18,0.52,25.21,2.1
369,arroyo,100,BO,1577607680,99,73.15,-11.08,-66.08,0.65
370,preobrazheniye,100,RU,1577607682,95,26.2,42.9,133.91,1.52
371,ucluelet,100,CA,1577607682,93,46.99,48.94,-125.55,1.99
372,coihaique,20,CL,1577607683,81,46.4,-45.58,-72.07,5.82
373,tuatapere,35,NZ,1577607683,88,57.0,-46.13,167.69,23.0
374,tabou,53,CI,1577607555,79,83.07,4.42,-7.36,0.36
375,agogo,68,GH,1577607684,44,87.91,6.8,-1.08,2.06
376,belyy yar,0,RU,1577607684,68,-18.4,53.6,91.39,1.32
377,iquique,90,CL,1577607684,68,69.8,-20.22,-70.14,1.32
378,madhugiri,38,IN,1577607684,44,81.57,13.66,77.21,6.02
379,fergus falls,90,US,1577607685,100,32.0,46.28,-96.08,10.29
380,wajima,75,JP,1577607685,81,44.6,37.4,136.9,2.24
381,bintulu,75,MY,1577607685,79,86.0,3.17,113.03,9.17
382,baijiantan,100,CN,1577607686,79,18.5,45.63,85.18,5.32
383,chuy,100,UY,1577607686,88,71.02,-33.69,-53.46,2.57
384,sur,37,OM,1577607473,63,73.94,22.57,59.53,8.97
385,acapulco,20,MX,1577607447,88,77.0,16.86,-99.88,3.36
386,yerbogachen,100,RU,1577607687,91,-20.78,61.28,108.01,11.41
387,krasnokholmskiy,27,RU,1577607687,85,12.43,55.99,55.05,12.75
388,saint-francois,90,FR,1577607688,88,35.01,46.42,3.91,9.17
389,kandrian,53,PG,1577607688,88,76.84,-6.21,149.55,1.25
390,vardo,1,US,1577607688,80,46.99,39.62,-77.74,4.7
391,bud,100,NO,1577607688,87,50.0,62.91,6.91,2.24
392,chateaubelair,20,VC,1577607689,78,78.8,13.28,-61.25,17.22
393,kizilskoye,100,RU,1577607689,91,10.67,52.73,58.89,12.73
394,varnavino,72,RU,1577607690,90,6.19,61.19,46.56,2.86
395,golynki,100,RU,1577607690,78,26.44,54.87,31.38,5.21
396,paveh,20,IR,1577607690,60,42.8,35.05,46.36,2.24
397,lata,41,IN,1577607691,54,28.44,30.78,78.62,4.9
398,phalodi,0,IN,1577607691,13,66.74,27.13,72.36,6.49
399,te anau,78,NZ,1577607691,95,52.7,-45.41,167.72,7.34
400,caravelas,2,BR,1577607691,88,72.61,-17.73,-39.27,1.12
401,iskateley,100,RU,1577607691,88,18.55,67.68,53.15,27.58
402,mananjary,25,MG,1577607692,50,80.24,-19.16,46.8,4.7
403,candolim,100,IN,1577607692,36,96.1,15.52,73.76,3.76
404,kununurra,77,AU,1577607524,35,100.4,-15.77,128.74,5.82
405,ilulissat,83,GL,1577607692,65,8.6,69.22,-51.1,5.82
406,mahibadhoo,14,MV,1577607693,78,82.2,3.78,72.97,17.02
407,brokopondo,20,SR,1577607670,94,73.4,5.06,-54.98,1.12
408,seymchan,80,RU,1577607693,97,-27.26,62.93,152.39,0.85
409,santa cruz,0,BR,1577607608,88,71.1,-6.22,-36.02,6.13
410,chyhyryn,100,UA,1577607693,92,34.25,49.08,32.67,11.3
411,santiago del estero,100,AR,1577607694,83,75.74,-27.8,-64.26,5.61
412,sorochinsk,99,RU,1577607694,92,20.21,52.43,53.15,7.16
413,galveston,90,US,1577607694,100,57.2,40.58,-86.19,11.41
414,aksu,90,KZ,1577607694,85,21.2,52.04,76.93,6.71
415,leningradskiy,100,RU,1577607695,89,-8.66,69.38,178.42,10.6
416,smirnykh,0,RU,1577607695,77,-3.77,49.74,142.83,4.16
417,mlowo,100,TZ,1577607695,98,61.57,-9.01,33.0,3.13
418,kayalpattinam,90,IN,1577607695,69,82.4,8.57,78.12,11.41
419,general pico,100,AR,1577607695,89,69.48,-35.66,-63.75,5.41
420,tutoia,70,BR,1577607696,89,75.63,-2.76,-42.27,3.53
421,pontes e lacerda,95,BR,1577607696,97,70.79,-15.23,-59.33,3.13
422,oeiras,100,BR,1577607696,56,78.62,-7.01,-42.13,1.92
423,sabha,0,LY,1577607491,61,54.1,27.03,14.43,11.03
424,porto velho,75,BR,1577607697,94,73.4,-8.75,-63.87,6.93
425,beloha,0,MG,1577607537,26,103.12,-25.17,45.06,1.95
426,inverness,20,GB,1577607697,71,55.0,57.48,-4.23,26.4
427,vostok,87,RU,1577607697,88,6.4,46.45,135.83,3.62
428,broome,100,GB,1577607698,93,44.01,52.47,1.45,10.29
429,nizwa,61,OM,1577607698,59,67.14,22.93,57.53,5.39
430,khandyga,100,RU,1577607698,99,-36.8,62.65,135.58,2.19
431,scalea,77,IT,1577607698,71,42.01,39.82,15.79,10.0
432,yagodnoye,64,RU,1577607698,85,-16.64,62.52,149.63,3.27
433,naze,75,NG,1577607699,82,66.2,5.43,7.07,6.78
434,banepa,20,NP,1577607699,25,64.4,27.63,85.52,4.7
435,edd,16,ER,1577607699,50,86.49,13.93,41.69,9.04
436,fonte boa,100,BR,1577607547,98,74.52,-2.51,-66.09,0.38
437,bourg-en-bresse,75,FR,1577607700,86,37.4,46.21,5.22,3.36
438,tilichiki,0,RU,1577607700,69,-15.09,60.47,166.1,7.45
439,palmer,26,AU,1577607530,35,100.99,-34.85,139.16,9.17
440,west odessa,1,US,1577607702,69,41.0,31.84,-102.48,6.93
441,tacuarembo,100,UY,1577607506,80,72.37,-31.73,-55.98,2.84
442,saint-michel-des-saints,81,CA,1577607703,96,18.07,46.68,-73.92,3.89
443,asyut,0,EG,1577607704,53,51.8,27.18,31.19,4.7
444,roma,0,IT,1577607426,55,44.01,41.89,12.48,3.36
445,pereslavl-zalesskiy,99,RU,1577607704,73,21.52,56.74,38.86,3.56
446,saa,0,NG,1577607704,17,81.99,7.32,10.08,7.78
447,xining,100,CN,1577607660,25,25.63,36.62,101.77,7.38
448,acajutla,0,SV,1577607563,94,66.99,13.59,-89.83,7.18
449,tahoua,0,NE,1577607705,28,59.0,14.89,5.26,6.93
450,fengcheng,100,CN,1577607705,96,32.54,40.45,124.07,3.74
451,izhma,100,RU,1577607705,79,16.23,65.01,53.91,12.5
452,nacogdoches,90,US,1577607664,100,57.99,31.6,-94.66,0.31
453,butembo,39,CD,1577607706,43,77.5,0.12,29.29,5.32
454,norwich,100,GB,1577607414,93,44.01,52.63,1.29,10.29
455,hofn,88,IS,1577607706,88,41.4,64.25,-15.21,1.52
456,smoky lake,100,CA,1577607706,75,21.99,54.11,-112.47,3.0
457,mae hong son,20,MM,1577607707,48,84.2,19.3,97.96,1.81
458,paracatu,100,BR,1577607707,99,65.61,-17.22,-46.87,4.74
459,kamenice nad lipou,97,CZ,1577607707,77,30.99,49.3,15.08,3.0
460,chara,20,GR,1577607707,48,41.0,39.42,22.43,17.22
461,xihua,0,CN,1577607708,57,51.64,33.79,114.53,2.98
462,verkhnyaya balkariya,90,RU,1577607545,60,32.0,43.13,43.46,4.47
463,salvador,40,BR,1577607708,74,80.6,-12.98,-38.48,6.93
464,dukat,0,AL,1577607708,31,50.0,40.25,19.57,3.58
465,suna,75,FI,1577607709,95,34.0,60.2,24.68,17.22
466,brewster,1,US,1577607709,92,37.99,41.76,-70.08,3.36
467,lethem,44,GY,1577607709,80,75.83,3.38,-59.8,11.43
468,thinadhoo,100,MV,1577607480,78,82.74,0.53,72.93,10.71
469,rawson,0,AR,1577607710,67,60.46,-43.3,-65.11,0.72
470,aklavik,20,CA,1577607710,73,-31.0,68.22,-135.01,9.86
471,omboue,84,GA,1577607710,78,82.02,-1.57,9.26,2.77
472,bilibino,90,RU,1577607710,57,-15.16,68.06,166.44,2.98
473,tallahassee,90,US,1577607429,100,71.01,30.44,-84.28,5.82
474,xudat,92,AZ,1577607711,84,44.37,41.63,48.68,4.92
475,kipini,1,KE,1577607711,70,86.0,-2.53,40.53,8.19
476,amga,100,RU,1577607711,97,-31.52,60.89,131.98,3.31
477,hauterive,90,CA,1577607711,58,28.4,49.18,-68.27,6.93
478,puerto leguizamo,49,CO,1577607712,96,72.64,-0.19,-74.78,1.1
479,gumdag,87,TM,1577607712,65,54.32,39.2,54.59,6.58
480,abha,20,SA,1577607712,42,64.4,18.22,42.5,16.11
481,nicoya,83,CR,1577607713,1,72.0,10.15,-85.45,5.84
482,la ronge,90,CA,1577607713,85,14.0,55.1,-105.3,9.17
483,deputatskiy,0,RU,1577607714,80,-28.39,69.3,139.9,3.38
484,axim,48,GH,1577607714,61,87.39,4.87,-2.24,1.74
485,genhe,0,CN,1577607715,93,-19.23,50.78,121.52,4.9
486,nemuro,20,JP,1577607715,67,21.2,43.32,145.57,5.82
487,penzance,75,GB,1577607715,93,52.0,50.12,-5.53,16.11
488,pacific grove,20,US,1577607716,86,46.99,36.62,-121.92,5.82
489,vanimo,100,PG,1577607716,76,83.28,-2.67,141.3,11.92
490,sayyan,0,YE,1577607716,22,64.87,15.17,44.32,5.59
491,eureka,40,US,1577607717,100,46.0,40.8,-124.16,8.05
492,katherine,31,AU,1577607717,46,93.2,-14.47,132.26,9.17
493,visby,99,SE,1577607717,80,39.0,57.64,18.3,17.22
494,laksham,0,BD,1577607717,41,77.23,23.25,91.14,7.63
495,waterfoot,75,GB,1577607718,93,48.2,53.69,-2.25,5.82
496,henties bay,61,NA,1577607718,86,62.01,-22.12,14.28,1.99
497,trelew,0,AR,1577607719,46,55.58,-43.25,-65.31,0.96
498,port lincoln,0,AU,1577607458,45,78.84,-34.72,135.86,6.98
499,panguna,40,PG,1577607719,93,70.2,-6.32,155.48,1.95
500,necochea,90,AR,1577607720,1,64.0,-38.55,-58.74,1.99
501,novo aripuana,100,BR,1577607720,99,73.24,-5.12,-60.38,1.86
502,tottori,100,JP,1577607721,57,50.0,35.5,134.23,4.7
503,turinskaya sloboda,82,RU,1577607721,90,2.46,57.62,64.39,9.28
504,neyshabur,76,IR,1577607553,31,52.5,36.21,58.79,0.65
505,yar-sale,100,RU,1577607722,86,17.92,66.83,70.83,19.35
506,prince rupert,75,CA,1577607723,87,44.6,54.32,-130.32,11.41
507,honiara,40,SB,1577607667,79,84.2,-9.43,159.96,2.24
508,ketchikan,40,US,1577607512,87,42.8,55.34,-131.65,5.82
509,xam nua,88,LA,1577607725,92,64.08,20.42,104.04,0.85
510,drumnadrochit,20,GB,1577607725,71,55.0,57.34,-4.48,26.4
511,rock sound,95,BS,1577607725,79,75.33,24.9,-76.2,20.11
512,mabaruma,100,GY,1577607727,98,73.2,8.2,-59.78,2.42
513,frumosu,75,RO,1577607727,92,28.0,47.61,25.65,13.87
514,qaqortoq,100,GL,1577607729,86,26.6,60.72,-46.03,2.24
515,correntina,64,BR,1577607729,98,66.04,-13.34,-44.63,3.49
516,corn island,94,NI,1577607729,83,81.63,12.17,-83.04,15.3
517,tombouctou,0,ML,1577607730,10,71.85,16.77,-3.01,12.71
518,peleduy,84,RU,1577607730,94,-24.12,59.63,112.75,5.32
519,zyryanka,0,RU,1577607730,83,-26.55,65.73,150.89,3.6
520,ust-koksa,100,RU,1577607730,58,14.47,50.27,85.62,6.96
521,miracema do tocantins,100,BR,1577607731,94,72.9,-9.56,-48.4,2.19
522,berlevag,100,NO,1577607731,89,39.27,70.86,29.09,33.15
523,high rock,98,BS,1577607731,81,75.07,26.63,-78.28,19.37
524,tanout,0,NE,1577607731,17,68.88,14.97,8.88,14.52
525,linxia,99,CN,1577607524,45,23.5,35.6,103.21,2.42
526,peniche,0,PT,1577607732,81,55.99,39.36,-9.38,6.93
527,biryusinsk,42,RU,1577607732,86,-12.64,55.96,97.82,8.05
528,san quintin,16,PH,1577607732,83,79.83,17.54,120.52,3.83
529,margate,75,AU,1577607732,72,66.99,-43.03,147.26,17.22
530,boa vista,93,BR,1577607733,88,77.0,2.82,-60.67,6.93
531,porto novo,75,BR,1577607733,83,69.8,-23.68,-45.44,2.24
532,half moon bay,1,US,1577607733,87,52.0,37.46,-122.43,9.33
533,beringovskiy,0,RU,1577607733,90,-8.72,63.05,179.32,19.3
534,pimenta bueno,100,BR,1577607734,98,70.66,-11.68,-61.19,3.58
535,iqaluit,90,CA,1577607440,69,-7.01,63.75,-68.52,20.8
536,zhuhai,20,CN,1577607734,36,14.0,40.71,112.04,17.9
537,maceio,20,BR,1577607734,88,75.2,-9.67,-35.74,2.24
